{"type":"FeatureCollection","features":[{"type":"Feature","geometry":{"type":"Point","coordinates":[-69.0958,-16.22484]},"properties":{"fid":1,"N":1,"ADMINISTRA":"Administración Frontera Kasani","TIPO":"Frontera","DEPARTAMEN":"La Paz","CIUDAD":"Copacabana","DIRECCION":"Final Av. Panamericana Bolivia y Perú","TELEFONO":"28622521","PAIS":"Bolivia","LATITUD":-16.22484,"LONGITUD":-69.0958},"id":"administracion_aduanera_2018.1"},{"type":"Feature","geometry":{"type":"Point","coordinates":[-62.45875,-21.67245]},"properties":{"fid":2,"N":2,"ADMINISTRA":"Aduana de Control Integrado (ACI)","TIPO":"Control","DEPARTAMEN":"","CIUDAD":"Paraguay","DIRECCION":"Infante Rivarola \u2013 Paraguay","TELEFONO":"","PAIS":"Frontera Bolivia \u2013 Paraguay","LATITUD":-21.67245,"LONGITUD":-62.45875},"id":"administracion_aduanera_2018.2"},{"type":"Feature","geometry":{"type":"Point","coordinates":[-67.10939,-17.96981]},"properties":{"fid":3,"N":3,"ADMINISTRA":"Aduana Interior Oruro","TIPO":"Control","DEPARTAMEN":"Oruro","CIUDAD":"Oruro","DIRECCION":"Velasco Galvarro Nº 5925 y Junin","TELEFONO":"591-2-5277088, 2-5280864","PAIS":"Bolivia","LATITUD":-17.96981,"LONGITUD":-67.10939},"id":"administracion_aduanera_2018.3"},{"type":"Feature","geometry":{"type":"Point","coordinates":[-66.17228,-17.41038]},"properties":{"fid":4,"N":4,"ADMINISTRA":"Aeropuerto Cochabamba","TIPO":"Aeropuerto","DEPARTAMEN":"Cochabamba","CIUDAD":"Cochabamba","DIRECCION":"Av. Killman s\/n Edificio CADEXCO","TELEFONO":"4123161","PAIS":"Bolivia","LATITUD":-17.41038,"LONGITUD":-66.17228},"id":"administracion_aduanera_2018.4"},{"type":"Feature","geometry":{"type":"Point","coordinates":[-68.17899,-16.50809]},"properties":{"fid":5,"N":5,"ADMINISTRA":"Aeropuerto El Alto","TIPO":"Aeropuerto","DEPARTAMEN":"La Paz","CIUDAD":"El Alto","DIRECCION":"Aeropuerto Internacional El Alto, curva avenida Héroes del km7","TELEFONO":"2811973","PAIS":"Bolivia","LATITUD":-16.50809,"LONGITUD":-68.17899},"id":"administracion_aduanera_2018.5"},{"type":"Feature","geometry":{"type":"Point","coordinates":[-63.14066,-17.64877]},"properties":{"fid":6,"N":6,"ADMINISTRA":"Aeropuerto Viru Viru","TIPO":"Aeropuerto","DEPARTAMEN":"Santa Cruz","CIUDAD":"Warnes","DIRECCION":"Carretera al Norte Km 17 sección carga","TELEFONO":"3852118","PAIS":"Bolivia","LATITUD":-17.64877,"LONGITUD":-63.14066},"id":"administracion_aduanera_2018.6"},{"type":"Feature","geometry":{"type":"Point","coordinates":[-68.16959,-16.52028]},"properties":{"fid":7,"N":7,"ADMINISTRA":"Agencia Aduana Exterior Arica Oficina Administrativa","TIPO":"Agencia","DEPARTAMEN":"La Paz","CIUDAD":"El Alto","DIRECCION":"Entre avenida 6 de marzo y carrera a Viacha","TELEFONO":"56-58-2583898, 2519351, 2583899","PAIS":"Bolivia","LATITUD":-16.52028,"LONGITUD":-68.16959},"id":"administracion_aduanera_2018.7"},{"type":"Feature","geometry":{"type":"Point","coordinates":[-70.31885,-18.48204]},"properties":{"fid":8,"N":8,"ADMINISTRA":"Agencia Aduana Exterior Arica Puerto Arica","TIPO":"Agencia","DEPARTAMEN":"","CIUDAD":"Arica, Chile","DIRECCION":"Puerto de la TPA, calle Maximo Lira Nº 391","TELEFONO":"56-58-2583898, 8848303, 2519351","PAIS":"Chile","LATITUD":-18.48204,"LONGITUD":-70.31885},"id":"administracion_aduanera_2018.8"},{"type":"Feature","geometry":{"type":"Point","coordinates":[-57.68706,-19.02117]},"properties":{"fid":9,"N":9,"ADMINISTRA":"AGESA","TIPO":"Agencia","DEPARTAMEN":"","CIUDAD":"Corumba, Brazil","DIRECCION":"","TELEFONO":"","PAIS":"Brasil","LATITUD":-19.02117,"LONGITUD":-57.68706},"id":"administracion_aduanera_2018.9"},{"type":"Feature","geometry":{"type":"Point","coordinates":[-58.33867,-16.39564]},"properties":{"fid":10,"N":10,"ADMINISTRA":"Control Integrado Curixa","TIPO":"Control","DEPARTAMEN":"","CIUDAD":"","DIRECCION":"","TELEFONO":"","PAIS":"Frontera Bolivia \u2013 Brasil","LATITUD":-16.39564,"LONGITUD":-58.33867},"id":"administracion_aduanera_2018.10"},{"type":"Feature","geometry":{"type":"Point","coordinates":[-67.8574,-22.42182]},"properties":{"fid":11,"N":11,"ADMINISTRA":"Frontera Apacheta Hito Cajones","TIPO":"Frontera","DEPARTAMEN":"Potosí","CIUDAD":"","DIRECCION":"Apacheta Hito Cajones  (Frontera con Chile)","TELEFONO":"010(2)6132019","PAIS":"Bolivia","LATITUD":-22.42182,"LONGITUD":-67.8574},"id":"administracion_aduanera_2018.11"},{"type":"Feature","geometry":{"type":"Point","coordinates":[-57.70891,-19.02783]},"properties":{"fid":12,"N":12,"ADMINISTRA":"Frontera Arroyo Concepción","TIPO":"Frontera","DEPARTAMEN":"Santa Cruz","CIUDAD":"Puerto Quijarro","DIRECCION":"Av. Bolivia Frontera Brasil","TELEFONO":"39782135","PAIS":"Bolivia","LATITUD":-19.02783,"LONGITUD":-57.70891},"id":"administracion_aduanera_2018.12"},{"type":"Feature","geometry":{"type":"Point","coordinates":[-68.21574,-21.20485]},"properties":{"fid":13,"N":13,"ADMINISTRA":"Frontera Avaroa","TIPO":"Frontera","DEPARTAMEN":"Potosí","CIUDAD":"","DIRECCION":"Avaroa (frontera con Chile)","TELEFONO":"01056978371412 \u2013 010 (2)6138930","PAIS":"Bolivia","LATITUD":-21.20485,"LONGITUD":-68.21574},"id":"administracion_aduanera_2018.13"},{"type":"Feature","geometry":{"type":"Point","coordinates":[-64.33639,-22.73151]},"properties":{"fid":14,"N":14,"ADMINISTRA":"Frontera Bermejo","TIPO":"Frontera","DEPARTAMEN":"Tarija","CIUDAD":"","DIRECCION":"Pasaje Oruro entre Av. Beni y Calle Litoral","TELEFONO":"4-6963282","PAIS":"Bolivia","LATITUD":-22.73151,"LONGITUD":-64.33639},"id":"administracion_aduanera_2018.14"},{"type":"Feature","geometry":{"type":"Point","coordinates":[-64.36051,-22.7296]},"properties":{"fid":15,"N":15,"ADMINISTRA":"Frontera Bermejo (ACI)","TIPO":"Frontera","DEPARTAMEN":"","CIUDAD":"","DIRECCION":"Aguas Blancas \u2013 Argentina","TELEFONO":"4-6964100","PAIS":"Argentina","LATITUD":-22.7296,"LONGITUD":-64.36051},"id":"administracion_aduanera_2018.15"},{"type":"Feature","geometry":{"type":"Point","coordinates":[-62.46225,-21.66823]},"properties":{"fid":16,"N":16,"ADMINISTRA":"Frontera Cañada Oruro","TIPO":"Frontera","DEPARTAMEN":"Tarija","CIUDAD":"","DIRECCION":"ACI Villamontes (Hito BR94)","TELEFONO":"4-6724047","PAIS":"Frontera entre Bolivia y Paraguay","LATITUD":-21.66823,"LONGITUD":-62.46225},"id":"administracion_aduanera_2018.16"},{"type":"Feature","geometry":{"type":"Point","coordinates":[-69.44863,-17.59434]},"properties":{"fid":17,"N":17,"ADMINISTRA":"Frontera Charaña","TIPO":"Frontera","DEPARTAMEN":"Oruro","CIUDAD":"Charaña","DIRECCION":"Av. Batallón Colorados s\/n carretera Internacional Bolivia \u2013 Chile","TELEFONO":"","PAIS":"Bolivia","LATITUD":-17.59434,"LONGITUD":-69.44863},"id":"administracion_aduanera_2018.17"},{"type":"Feature","geometry":{"type":"Point","coordinates":[-68.75474,-11.01649]},"properties":{"fid":18,"N":18,"ADMINISTRA":"Frontera Cobija","TIPO":"Frontera","DEPARTAMEN":"Pando","CIUDAD":"Cobija","DIRECCION":"Av. 9 de Febrero entre calle Tarija y Cochabamba","TELEFONO":"38422299","PAIS":"Bolivia","LATITUD":-11.01649,"LONGITUD":-68.75474},"id":"administracion_aduanera_2018.18"},{"type":"Feature","geometry":{"type":"Point","coordinates":[-69.03219,-16.58046]},"properties":{"fid":19,"N":19,"ADMINISTRA":"Frontera Desaguadero","TIPO":"Frontera","DEPARTAMEN":"La Paz","CIUDAD":"Desaguadero","DIRECCION":"Av. Mujica esq. Calle Nº2 s\/n","TELEFONO":"2136261","PAIS":"Bolivia","LATITUD":-16.58046,"LONGITUD":-69.03219},"id":"administracion_aduanera_2018.19"},{"type":"Feature","geometry":{"type":"Point","coordinates":[-65.34993,-10.80818]},"properties":{"fid":20,"N":20,"ADMINISTRA":"Frontera Guayaramerín","TIPO":"Frontera","DEPARTAMEN":"Beni","CIUDAD":"Guayaramerín","DIRECCION":"Av. Federico Román esquina Costanera Hotel Luxor","TELEFONO":"38559108","PAIS":"Bolivia","LATITUD":-10.80818,"LONGITUD":-65.34993},"id":"administracion_aduanera_2018.20"},{"type":"Feature","geometry":{"type":"Point","coordinates":[-68.61261,-19.26872]},"properties":{"fid":21,"N":21,"ADMINISTRA":"Frontera Pisiga","TIPO":"Frontera","DEPARTAMEN":"Oruro","CIUDAD":"Pisiga","DIRECCION":"Carretera Internacional Oruro \u2013 Pisiga Km 237","TELEFONO":"591-2-25136133","PAIS":"Bolivia","LATITUD":-19.26872,"LONGITUD":-68.61261},"id":"administracion_aduanera_2018.21"},{"type":"Feature","geometry":{"type":"Point","coordinates":[-58.40801,-16.35437]},"properties":{"fid":22,"N":22,"ADMINISTRA":"Frontera San Matías","TIPO":"Frontera","DEPARTAMEN":"Santa Cruz","CIUDAD":"San Matías","DIRECCION":"Barrio Copacabana frente al surtidor Angel Sandoval (Frontera con Brasil)","TELEFONO":"39792030","PAIS":"Bolivia","LATITUD":-16.35437,"LONGITUD":-58.40801},"id":"administracion_aduanera_2018.22"},{"type":"Feature","geometry":{"type":"Point","coordinates":[-60.07795,-16.27022]},"properties":{"fid":23,"N":23,"ADMINISTRA":"Frontera San Vicente","TIPO":"Frontera","DEPARTAMEN":"Santa Cruz","CIUDAD":"San Vicente","DIRECCION":"Localidad San Vicente (Frontera con Brasil)","TELEFONO":"33137717","PAIS":"Bolivia","LATITUD":-16.27022,"LONGITUD":-60.07795},"id":"administracion_aduanera_2018.23"},{"type":"Feature","geometry":{"type":"Point","coordinates":[-69.00474,-18.27834]},"properties":{"fid":24,"N":24,"ADMINISTRA":"Frontera Tambo Quemado","TIPO":"Frontera","DEPARTAMEN":"La Paz","CIUDAD":"","DIRECCION":"Carretera Patacamaya Tambo Quemado km 180","TELEFONO":"591-2-25136211","PAIS":"Bolivia","LATITUD":-18.27834,"LONGITUD":-69.00474},"id":"administracion_aduanera_2018.24"},{"type":"Feature","geometry":{"type":"Point","coordinates":[-65.59575,-22.09162]},"properties":{"fid":25,"N":25,"ADMINISTRA":"Frontera Villazón","TIPO":"Frontera","DEPARTAMEN":"Potosí","CIUDAD":"Villazón","DIRECCION":"Av. J.M. Deheza Nº311 (frente a la plaza principal)","TELEFONO":"(2)5972080, (2) 5965213","PAIS":"Bolivia","LATITUD":-22.09162,"LONGITUD":-65.59575},"id":"administracion_aduanera_2018.25"},{"type":"Feature","geometry":{"type":"Point","coordinates":[-63.63383,-21.90429]},"properties":{"fid":26,"N":26,"ADMINISTRA":"Frontera Yacuiba","TIPO":"Frontera","DEPARTAMEN":"Tarija","CIUDAD":"Piedra Blanca","DIRECCION":"Campo Pajoso, carretera Yacuiba \u2013 Santa Cruz \u2013 km. 14","TELEFONO":"4-6822391","PAIS":"Bolivia","LATITUD":-21.90429,"LONGITUD":-63.63383},"id":"administracion_aduanera_2018.26"},{"type":"Feature","geometry":{"type":"Point","coordinates":[-63.68403,-22.05349]},"properties":{"fid":27,"N":27,"ADMINISTRA":"Frontera Yacuiba (ACI)","TIPO":"Frontera","DEPARTAMEN":"","CIUDAD":"Salvador Mazza \u2013 Argentina","DIRECCION":"Salvador Mazza \u2013 Argentina","TELEFONO":"4-6825991","PAIS":"Argentina","LATITUD":-22.05349,"LONGITUD":-63.68403},"id":"administracion_aduanera_2018.27"},{"type":"Feature","geometry":{"type":"Point","coordinates":[-66.22531,-17.3957]},"properties":{"fid":28,"N":28,"ADMINISTRA":"Gerencia Regional Cochabamba","TIPO":"Regional","DEPARTAMEN":"Cochabamba","CIUDAD":"Cochabamba","DIRECCION":"Av. Capitán Victor Ustáriz Km. 7,5","TELEFONO":"","PAIS":"Bolivia","LATITUD":-17.3957,"LONGITUD":-66.22531},"id":"administracion_aduanera_2018.28"},{"type":"Feature","geometry":{"type":"Point","coordinates":[-68.15395,-16.5254]},"properties":{"fid":29,"N":29,"ADMINISTRA":"Gerencia Regional La Paz","TIPO":"Regional","DEPARTAMEN":"La Paz","CIUDAD":"El Alto","DIRECCION":"Avenida del Policia calle 22-A Nº 637 entre calle 6 (Diego de Portugal) y calle 7 (Ballivian Otero)","TELEFONO":"2818358, 2812050, 2816863","PAIS":"Bolivia","LATITUD":-16.5254,"LONGITUD":-68.15395},"id":"administracion_aduanera_2018.29"},{"type":"Feature","geometry":{"type":"Point","coordinates":[-67.12914,-17.98234]},"properties":{"fid":30,"N":30,"ADMINISTRA":"Gerencia Regional Oruro","TIPO":"Regional","DEPARTAMEN":"Oruro","CIUDAD":"Oruro","DIRECCION":"Calle Madrid Nº 390 entre América y Colón","TELEFONO":"25274822, 25274611, 25258826","PAIS":"Bolivia","LATITUD":-17.98234,"LONGITUD":-67.12914},"id":"administracion_aduanera_2018.30"},{"type":"Feature","geometry":{"type":"Point","coordinates":[-65.7581,-19.58204]},"properties":{"fid":31,"N":31,"ADMINISTRA":"Gerencia Regional Potosí","TIPO":"Regional","DEPARTAMEN":"Potosí","CIUDAD":"Potosí","DIRECCION":"Avenida Villazón Nº 242 entre calle Wenceslao Alba y calle San Alberto","TELEFONO":"(2) 62-31644, 62-31644","PAIS":"Bolivia","LATITUD":-19.58204,"LONGITUD":-65.7581},"id":"administracion_aduanera_2018.31"},{"type":"Feature","geometry":{"type":"Point","coordinates":[-63.19087,-17.76388]},"properties":{"fid":32,"N":32,"ADMINISTRA":"Gerencia Regional Santa Cruz","TIPO":"Regional","DEPARTAMEN":"Santa Cruz","CIUDAD":"Santa Cruz de la Sierra","DIRECCION":"Av. La Salle esquina Claudio Peñaranda","TELEFONO":"3425333","PAIS":"Bolivia","LATITUD":-17.76388,"LONGITUD":-63.19087},"id":"administracion_aduanera_2018.32"},{"type":"Feature","geometry":{"type":"Point","coordinates":[-64.71273,-21.54298]},"properties":{"fid":33,"N":33,"ADMINISTRA":"Gerencia Regional Tarija","TIPO":"Regional","DEPARTAMEN":"Tarija","CIUDAD":"Tarija","DIRECCION":"Av. Jaime Paz Zamora Nº 2381, zona Juan XXIII","TELEFONO":"4-6648600","PAIS":"Bolivia","LATITUD":-21.54298,"LONGITUD":-64.71273},"id":"administracion_aduanera_2018.33"},{"type":"Feature","geometry":{"type":"Point","coordinates":[-66.22568,-17.39562]},"properties":{"fid":34,"N":34,"ADMINISTRA":"Interior Cochabamba","TIPO":"Interior","DEPARTAMEN":"Cochabamba","CIUDAD":"Cochabamba","DIRECCION":"Av. Capitan Victor Ustariz Km. 7,5","TELEFONO":"4377777","PAIS":"Bolivia","LATITUD":-17.39562,"LONGITUD":-66.22568},"id":"administracion_aduanera_2018.34"},{"type":"Feature","geometry":{"type":"Point","coordinates":[-68.17404,-16.51823]},"properties":{"fid":35,"N":35,"ADMINISTRA":"Interior La Paz","TIPO":"Interior","DEPARTAMEN":"La Paz","CIUDAD":"El Alto","DIRECCION":"Villa Bolivia av. 6 de Marzo s\/n a 3 cuadras del cruce a Viacha carretera a Oruro","TELEFONO":"2812880,2812881","PAIS":"Bolivia","LATITUD":-16.51823,"LONGITUD":-68.17404},"id":"administracion_aduanera_2018.35"},{"type":"Feature","geometry":{"type":"Point","coordinates":[-67.06058,-17.97367]},"properties":{"fid":36,"N":36,"ADMINISTRA":"Interior Oruro","TIPO":"Interior","DEPARTAMEN":"Oruro","CIUDAD":"Oruro","DIRECCION":"Banco central","TELEFONO":"5289774","PAIS":"Bolivia","LATITUD":-17.97367,"LONGITUD":-67.06058},"id":"administracion_aduanera_2018.36"},{"type":"Feature","geometry":{"type":"Point","coordinates":[-65.75873,-19.57433]},"properties":{"fid":37,"N":37,"ADMINISTRA":"Interior Potosí","TIPO":"Interior","DEPARTAMEN":"Potosí","CIUDAD":"Potosí","DIRECCION":"Calle Madero Nº8 (Villa Fátima)","TELEFONO":"(2) 62-47317, 62-47318","PAIS":"Bolivia","LATITUD":-19.57433,"LONGITUD":-65.75873},"id":"administracion_aduanera_2018.37"},{"type":"Feature","geometry":{"type":"Point","coordinates":[-63.11441,-17.76666]},"properties":{"fid":38,"N":38,"ADMINISTRA":"Interior Santa Cruz","TIPO":"Interior","DEPARTAMEN":"Santa Cruz","CIUDAD":"Santa Cruz de la Sierra","DIRECCION":"Av. Virgen de Cotoca Km. 4 ½ diagonal matadero municipal","TELEFONO":"3492923","PAIS":"Bolivia","LATITUD":-17.76666,"LONGITUD":-63.11441},"id":"administracion_aduanera_2018.38"},{"type":"Feature","geometry":{"type":"Point","coordinates":[-63.15806,-17.57197]},"properties":{"fid":39,"N":39,"ADMINISTRA":"Interior Santa Cruz \u2013 Ex Zona Franca Warnes","TIPO":"Interior","DEPARTAMEN":"Santa Cruz","CIUDAD":"Warnes","DIRECCION":"Kilómetro 23 de la carretera al norte","TELEFONO":"9232935,9232936","PAIS":"Bolivia","LATITUD":-17.57197,"LONGITUD":-63.15806},"id":"administracion_aduanera_2018.39"},{"type":"Feature","geometry":{"type":"Point","coordinates":[-65.26183,-19.04013]},"properties":{"fid":40,"N":40,"ADMINISTRA":"Interior Sucre","TIPO":"Interior","DEPARTAMEN":"Chuquisaca","CIUDAD":"Sucre","DIRECCION":"Calle Manuel Molina Nº 2, zona Parque Bolivar","TELEFONO":"46438069","PAIS":"Bolivia","LATITUD":-19.04013,"LONGITUD":-65.26183},"id":"administracion_aduanera_2018.40"},{"type":"Feature","geometry":{"type":"Point","coordinates":[-64.70938,-21.5455]},"properties":{"fid":41,"N":41,"ADMINISTRA":"Interior Tarija","TIPO":"Interior","DEPARTAMEN":"Tarija","CIUDAD":"Tarija","DIRECCION":"Av. Juan Pablo II s\/n zona Aeropuerto","TELEFONO":"4-6661069","PAIS":"Bolivia","LATITUD":-21.5455,"LONGITUD":-64.70938},"id":"administracion_aduanera_2018.41"},{"type":"Feature","geometry":{"type":"Point","coordinates":[-68.13024,-16.50698]},"properties":{"fid":42,"N":42,"ADMINISTRA":"Oficina Central La Paz, Bolivia","TIPO":"Oficina","DEPARTAMEN":"La Paz","CIUDAD":"Nuestra Señora de La Paz","DIRECCION":"Av. 20 de Octubre Nº 2038, entre J.J Perez y Aspiazy (Sopocachi)","TELEFONO":"2128008","PAIS":"Bolivia","LATITUD":-16.50698,"LONGITUD":-68.13024},"id":"administracion_aduanera_2018.42"},{"type":"Feature","geometry":{"type":"Point","coordinates":[-72.00949,-17.02351]},"properties":{"fid":43,"N":43,"ADMINISTRA":"Oficina Mollendo","TIPO":"Oficina","DEPARTAMEN":"","CIUDAD":"Mollendo, Perú","DIRECCION":"Calle Comercio Nº 2219, segundo piso","TELEFONO":"51-54-534870","PAIS":"Perú","LATITUD":-17.02351,"LONGITUD":-72.00949},"id":"administracion_aduanera_2018.43"},{"type":"Feature","geometry":{"type":"Point","coordinates":[-72.09864,-16.9989]},"properties":{"fid":44,"N":44,"ADMINISTRA":"Oficina Puerto Matarani","TIPO":"Oficina","DEPARTAMEN":"","CIUDAD":"Matarina, Perú","DIRECCION":"Terminal Portuaria TISUR s\/n Interior Puerta Nº3 Oficina Aduana de Bolivia","TELEFONO":"51-54-557232","PAIS":"Perú","LATITUD":-16.9989,"LONGITUD":-72.09864},"id":"administracion_aduanera_2018.44"},{"type":"Feature","geometry":{"type":"Point","coordinates":[-63.20564,-17.81301]},"properties":{"fid":45,"N":45,"ADMINISTRA":"Oficinas COA Santa Cruz","TIPO":"Oficina","DEPARTAMEN":"Santa Cruz","CIUDAD":"Santa Cruz de la Sierra","DIRECCION":"Calle Lisboa Nº 3875","TELEFONO":"3569248","PAIS":"Bolivia","LATITUD":-17.81301,"LONGITUD":-63.20564},"id":"administracion_aduanera_2018.45"},{"type":"Feature","geometry":{"type":"Point","coordinates":[-66.15833,-17.39285]},"properties":{"fid":46,"N":46,"ADMINISTRA":"Postal Cochabamba","TIPO":"Postal","DEPARTAMEN":"Chuquisaca","CIUDAD":"Cochabamba","DIRECCION":"Pasaje Joaquín Zenteno (correo)","TELEFONO":"4221325","PAIS":"Bolivia","LATITUD":-17.39285,"LONGITUD":-66.15833},"id":"administracion_aduanera_2018.46"},{"type":"Feature","geometry":{"type":"Point","coordinates":[-68.13547,-16.49909]},"properties":{"fid":47,"N":47,"ADMINISTRA":"Postal La Paz","TIPO":"Postal","DEPARTAMEN":"La Paz","CIUDAD":"Nuestra Señora de La Paz","DIRECCION":"Zona Central av. Mariscal Santa Cruz, esquina calle Oruro Edificio Palacio de Comunicaciones, subsuelo","TELEFONO":"2363577","PAIS":"Bolivia","LATITUD":-16.49909,"LONGITUD":-68.13547},"id":"administracion_aduanera_2018.47"},{"type":"Feature","geometry":{"type":"Point","coordinates":[-63.1833,-17.78294]},"properties":{"fid":48,"N":48,"ADMINISTRA":"Postal Santa Cruz","TIPO":"Postal","DEPARTAMEN":"Santa Cruz","CIUDAD":"Santa Cruz de la Sierra","DIRECCION":"Calle Junín Nº 150 a media cuadra de la plaza 24 de Septiembre","TELEFONO":"3393373","PAIS":"Bolivia","LATITUD":-17.78294,"LONGITUD":-63.1833},"id":"administracion_aduanera_2018.48"},{"type":"Feature","geometry":{"type":"Point","coordinates":[-71.33972,-17.6477]},"properties":{"fid":49,"N":49,"ADMINISTRA":"Punto de Control Ilo","TIPO":"Control","DEPARTAMEN":"","CIUDAD":"Ilo, Perú","DIRECCION":"J.R. Junín 414, ediicio FERCAST piso 3 oficina 307, Cercado Ilo","TELEFONO":"51-53-483729","PAIS":"Perú","LATITUD":-17.6477,"LONGITUD":-71.33972},"id":"administracion_aduanera_2018.49"},{"type":"Feature","geometry":{"type":"Point","coordinates":[-67.18703,-17.1221]},"properties":{"fid":50,"N":50,"ADMINISTRA":"Punto de Control Paso Grande","TIPO":"Control","DEPARTAMEN":"Oruro","CIUDAD":"Oruro","DIRECCION":"Doble vía camino Oruro \u2013 La Paz a 7 kilómetros de población de Caracollo","TELEFONO":"591-2-5260457","PAIS":"Bolivia","LATITUD":-17.1221,"LONGITUD":-67.18703},"id":"administracion_aduanera_2018.50"},{"type":"Feature","geometry":{"type":"Point","coordinates":[-65.75102,-19.57118]},"properties":{"fid":51,"N":51,"ADMINISTRA":"Recinto Aduanero Interior Potosí","TIPO":"Interior","DEPARTAMEN":"Potosí","CIUDAD":"Potosí","DIRECCION":"Calle Tumusla s\/n casi esquina Circunvalación, zona de la Normal","TELEFONO":"(2)62-43192","PAIS":"Bolivia","LATITUD":-19.57118,"LONGITUD":-65.75102},"id":"administracion_aduanera_2018.51"},{"type":"Feature","geometry":{"type":"Point","coordinates":[-65.1488,-19.19799]},"properties":{"fid":52,"N":52,"ADMINISTRA":"Recinto Aduanero Interior Sucre \u2013 Yamparaez","TIPO":"Interior","DEPARTAMEN":"Chuquisaca","CIUDAD":"Yamparaez","DIRECCION":"","TELEFONO":"","PAIS":"Bolivia","LATITUD":-19.19799,"LONGITUD":-65.1488},"id":"administracion_aduanera_2018.52"},{"type":"Feature","geometry":{"type":"Point","coordinates":[-63.15088,-17.78587]},"properties":{"fid":53,"N":53,"ADMINISTRA":"Supervisoría Contrabando Contravencional","TIPO":"Control","DEPARTAMEN":"Santa Cruz","CIUDAD":"Santa Cruz de la Sierra","DIRECCION":"Av. Brasil una cuadra antes del 4to Anillo","TELEFONO":"3480312","PAIS":"Bolivia","LATITUD":-17.78587,"LONGITUD":-63.15088},"id":"administracion_aduanera_2018.53"},{"type":"Feature","geometry":{"type":"Point","coordinates":[-67.06243,-17.97732]},"properties":{"fid":54,"N":54,"ADMINISTRA":"URCA Oruro \u2013 Unidad Regional de Control Aduanero","TIPO":"Control","DEPARTAMEN":"Oruro","CIUDAD":"Oruro","DIRECCION":"Av. 24 de Julio, camino a Vinto","TELEFONO":"","PAIS":"Bolivia","LATITUD":-17.97732,"LONGITUD":-67.06243},"id":"administracion_aduanera_2018.54"},{"type":"Feature","geometry":{"type":"Point","coordinates":[-68.18152,-16.55453]},"properties":{"fid":55,"N":55,"ADMINISTRA":"Zona Franca Comercial El Alto","TIPO":"Franca","DEPARTAMEN":"La Paz","CIUDAD":"El Alto","DIRECCION":"Km 17 carretera a Oruro esq. Litoral s\/n","TELEFONO":"2851537,2852188","PAIS":"Bolivia","LATITUD":-16.55453,"LONGITUD":-68.18152},"id":"administracion_aduanera_2018.55"},{"type":"Feature","geometry":{"type":"Point","coordinates":[-68.22862,-16.54537]},"properties":{"fid":56,"N":56,"ADMINISTRA":"Zona Franca Industrial El Alto","TIPO":"Franca","DEPARTAMEN":"La Paz","CIUDAD":"El Alto","DIRECCION":"Km 7 carretera a Viacha, av. Estructurante","TELEFONO":"2833999","PAIS":"Bolivia","LATITUD":-16.54537,"LONGITUD":-68.22862},"id":"administracion_aduanera_2018.56"},{"type":"Feature","geometry":{"type":"Point","coordinates":[-57.7569,-18.99175]},"properties":{"fid":57,"N":57,"ADMINISTRA":"Zona Franca Industrial Puerto Suárez","TIPO":"Franca","DEPARTAMEN":"Santa Cruz","CIUDAD":"Puerto Quijarro","DIRECCION":"Carretera a Puerto Quijarro Km. 6","TELEFONO":"39763296","PAIS":"Bolivia","LATITUD":-18.99175,"LONGITUD":-57.7569},"id":"administracion_aduanera_2018.57"},{"type":"Feature","geometry":{"type":"Point","coordinates":[-67.03282,-18.01514]},"properties":{"fid":58,"N":58,"ADMINISTRA":"Zona Franca Oruro","TIPO":"Franca","DEPARTAMEN":"Oruro","CIUDAD":"Oruro","DIRECCION":"Carretera Oruro \u2013 Potosí (Tranca Vichuloma)","TELEFONO":"591-2-5288668, 2-5288669","PAIS":"Bolivia","LATITUD":-18.01514,"LONGITUD":-67.03282},"id":"administracion_aduanera_2018.58"},{"type":"Feature","geometry":{"type":"Point","coordinates":[-67.8989,-17.2493]},"properties":{"fid":59,"N":59,"ADMINISTRA":"Zona Franca Patacamaya","TIPO":"Franca","DEPARTAMEN":"La Paz","CIUDAD":"Patacamaya","DIRECCION":"Carretera a Oruro, avenida Panamericana Nº 250, zona Nueva Esperanza","TELEFONO":"28392704","PAIS":"Bolivia","LATITUD":-17.2493,"LONGITUD":-67.8989},"id":"administracion_aduanera_2018.59"},{"type":"Feature","geometry":{"type":"Point","coordinates":[-63.15777,-17.57245]},"properties":{"fid":60,"N":60,"ADMINISTRA":"Zona Franca Santa Cruz","TIPO":"Franca","DEPARTAMEN":"Santa Cruz","CIUDAD":"Warnes","DIRECCION":"Carretera al Norte Km 23, zona franca Warnes","TELEFONO":"39232935","PAIS":"Bolivia","LATITUD":-17.57245,"LONGITUD":-63.15777},"id":"administracion_aduanera_2018.60"},{"type":"Feature","geometry":{"type":"Point","coordinates":[-63.12602,-17.76679]},"properties":{"fid":61,"N":61,"ADMINISTRA":"Zona Franca Winner","TIPO":"Franca","DEPARTAMEN":"Santa Cruz","CIUDAD":"Santa Cruz de la Sierra","DIRECCION":"Km 4 ½ carretera a Cotoca zona Parque Industrial Mzs. P.I 39-40-55","TELEFONO":"3497782","PAIS":"Bolivia","LATITUD":-17.76679,"LONGITUD":-63.12602},"id":"administracion_aduanera_2018.61"},{"type":"Feature","geometry":{"type":"Point","coordinates":[-63.64359,-21.95051]},"properties":{"fid":62,"N":62,"ADMINISTRA":"Zona Franca Yacuiba","TIPO":"Franca","DEPARTAMEN":"Tarija","CIUDAD":"Yacuiba","DIRECCION":"Campo Grande, carretera Yacuiba \u2013 Santa Cruz, km 8","TELEFONO":"4-6832941","PAIS":"Bolivia","LATITUD":-21.95051,"LONGITUD":-63.64359},"id":"administracion_aduanera_2018.62"}]}